{
    "businesses":
    [
    {
        "name": "Bywater",
        "address": "796 Riverside Dr, Asheville, NC 28801",
        "hours": "12PM - 2AM",
        "phone": "828-555-5555",
        "website": "http://www.bywater.bar/",
        "frontCard": "img/cards/bywater_front.jpg",
        "backCard": "img/cards/bywater_back.jpg"
    },
    {
        "name": "Desoto Lounge",
        "address": "504 Haywood Rd, Asheville, NC 28806",
        "hours": "3PM - 2AM",
        "phone": "828-255-1109",
        "website": "http://www.desotolounge.com/",
        "frontCard": "img/cards/desoto_front.jpg",
        "backCard": "img/cards/desoto_back.jpg"
    },
    {
        "name": "Ole Shakey's",
        "address": "790 Riverside Dr, Asheville, NC 28801",
        "hours": "2PM - 2AM",
        "phone": "828-545-6985",
        "website": "https://www.oleshakeys.com/",
        "frontCard": "img/cards/shakeys_front.jpg",
        "backCard": "img/cards/shakeys_back.jpg"
    },
    {
        "name": "Lazy Diamond",
        "address": "4 Woodfin St, Asheville, NC 28801",
        "hours": "5PM - 2AM",
        "phone": "828-575-9676",
        "website": "https://www.facebook.com/TheLazyDiamondBar/",
        "frontCard": "img/cards/lazydiamond_front.jpg",
        "backCard": "img/cards/lazydiamond_back.jpg"
    },
    {
        "name": "Adam Dalton Distillery",
        "address": "251 Biltmore Ave, Asheville, NC 28801",
        "hours": "5PM - 2AM",
        "phone": "828-785-1499",
        "website": "https://www.daltondistillery.com/",
        "frontCard": "img/cards/dalton_front.jpg",
        "backCard": "img/cards/dalton_back.jpg"
    }
    ]
}